[
  {
    "Name": "三宮サンクス",
    "Address": "兵庫県神戸市中央区琴ノ緒町5-4-5高架下404-407",
    "Latitude": 34.6970128,
    "Longitude": 135.1962137
  },
  {
    "Name": "ＣＬＵＢＳＥＧＡ姫路ＯＳ",
    "Address": "兵庫県姫路市駅前町254姫路OSﾋﾞﾙB1F",
    "Latitude": 34.8287974,
    "Longitude": 134.6919101
  },
  {
    "Name": "遊スペースマジカル",
    "Address": "兵庫県神戸市中央区琴ノ緒町5-2-3",
    "Latitude": 34.6955213,
    "Longitude": 135.1949917
  },
  {
    "Name": "ゲームアイビス太子店",
    "Address": "兵庫県揖保郡太子町太田2148-1",
    "Latitude": 34.8320664,
    "Longitude": 134.5996607
  },
  {
    "Name": "ラウンドワン加古川店",
    "Address": "兵庫県加古川市尾上町安田325-6",
    "Latitude": 34.7470428,
    "Longitude": 134.8369253
  },
  {
    "Name": "ラウンドワン新開地店",
    "Address": "兵庫県神戸市兵庫区新開地2-3-4",
    "Latitude": 34.677209,
    "Longitude": 135.1701579
  },
  {
    "Name": "ラウンドワン三宮駅前店",
    "Address": "兵庫県神戸市中央区小野柄通6-1-17",
    "Latitude": 34.6939326,
    "Longitude": 135.1973748
  },
  {
    "Name": "ラウンドワン姫路飾磨店",
    "Address": "兵庫県姫路市飾磨区中島1-254",
    "Latitude": 34.7923295,
    "Longitude": 134.6870919
  },
  {
    "Name": "トップラン",
    "Address": "兵庫県神戸市西区岩岡町古郷1474-1",
    "Latitude": 34.7176826,
    "Longitude": 134.9289029
  },
  {
    "Name": "タイトーFステーション三宮西館店",
    "Address": "兵庫県神戸市三宮町2丁目11-1センタープラザ西館",
    "Latitude": 34.6899996,
    "Longitude": 135.1912477
  },
  {
    "Name": "アミパラ加古川店",
    "Address": "兵庫県加古川市尾上町今福７１－２",
    "Latitude": 34.7510119,
    "Longitude": 134.8290955
  }
]