[
  {
    "Name": "ＢＩＧＢＡＮＧ北見店",
    "Address": "北海道北見市中央三輪7丁目４４６－１",
    "Latitude": 43.7970421,
    "Longitude": 143.8513939
  },
  {
    "Name": "ディノスパーク札幌中央",
    "Address": "北海道札幌市中央区南三条西１－８スガイビル",
    "Latitude": 43.0564409,
    "Longitude": 141.3539878
  },
  {
    "Name": "ディノスパーク帯広",
    "Address": "北海道帯広市白樺十六条西２",
    "Latitude": 42.9190344,
    "Longitude": 143.1726666
  },
  {
    "Name": "キャッツアイ新札幌店",
    "Address": "北海道札幌市厚別区厚別東五条1",
    "Latitude": 43.0469509,
    "Longitude": 141.4762026
  },
  {
    "Name": "キャッツアイ清田店",
    "Address": "北海道札幌市清田区清田１－１－２０－１",
    "Latitude": 42.9881029,
    "Longitude": 141.4220135
  },
  {
    "Name": "キャッツアイ新川店",
    "Address": "北海道札幌市北区新川二条7丁目1-7",
    "Latitude": 43.1007562,
    "Longitude": 141.3102418
  },
  {
    "Name": "キャッツアイ東苗穂店",
    "Address": "北海道札幌市東区東苗穂6条2",
    "Latitude": 43.0928715,
    "Longitude": 141.4089724
  },
  {
    "Name": "キャッツアイ手稲店",
    "Address": "北海道札幌市手稲区前田三条１０－２－２１ロッテリア向い",
    "Latitude": 43.1184,
    "Longitude": 141.256529
  },
  {
    "Name": "（株）光速憧路",
    "Address": "北海道稚内市港5-8-15",
    "Latitude": 45.4007661,
    "Longitude": 141.6808568
  },
  {
    "Name": "マキシム・ヒーロー",
    "Address": "北海道札幌市北区北六条西6丁目1-2",
    "Latitude": 43.067531,
    "Longitude": 141.3462795
  },
  {
    "Name": "ナムコワンダーパーク札幌",
    "Address": "北海道札幌市中央区北5条西2丁目1-1札幌ｴｽﾀ9F",
    "Latitude": 43.065381,
    "Longitude": 141.3349612
  },
  {
    "Name": "ディノスパーク旭川",
    "Address": "北海道旭川市大雪通５－４９６－５",
    "Latitude": 43.7785799,
    "Longitude": 142.388066
  },
  {
    "Name": "ＢＩＧＢＡＮＧ函館",
    "Address": "北海道函館市梁川町9-3テキサスビル3F",
    "Latitude": 41.7902475,
    "Longitude": 140.7489774
  },
  {
    "Name": "タイトーステーション札幌狸小路",
    "Address": "北海道札幌市中央区南2条西3-5-1",
    "Latitude": 43.0574825,
    "Longitude": 141.3538183
  },
  {
    "Name": "ラウンドワン函館店",
    "Address": "北海道函館市西桔梗町848-1",
    "Latitude": 41.82459,
    "Longitude": 140.7174504
  },
  {
    "Name": "ラウンドワン旭川店",
    "Address": "北海道旭川市永山三条1-4-7",
    "Latitude": 43.7868227,
    "Longitude": 142.3970938
  },
  {
    "Name": "ＢＩＧＢＡＮＧ室蘭店",
    "Address": "北海道室蘭市中島本町２－８－１",
    "Latitude": 42.3536988,
    "Longitude": 141.0147029
  },
  {
    "Name": "ラウンドワン札幌北２１条店",
    "Address": "北海道札幌市東区北21条東1-1-21",
    "Latitude": 43.0866927,
    "Longitude": 141.3497058
  },
  {
    "Name": "キャッツアイ麻生店",
    "Address": "北海道札幌市北区北40条西4丁目1-1パッテス麻生1F",
    "Latitude": 43.1080413,
    "Longitude": 141.3396515
  },
  {
    "Name": "アミューズメントスペース遊ランド旭川",
    "Address": "北海道旭川市西御料５条２丁目",
    "Latitude": 43.7227943,
    "Longitude": 142.3692708
  },
  {
    "Name": "ラウンドワン札幌すすきの店",
    "Address": "北海道札幌市中央区南五条西3-6-1",
    "Latitude": 43.0545356,
    "Longitude": 141.354524
  }
]