[
  {
    "Name": "ハイテクセガ柏",
    "Address": "千葉県柏市柏1-1-11丸井ﾃﾞﾊﾟｰﾄ内B1F",
    "Latitude": 35.861733400000006,
    "Longitude": 139.97117400000005
  },
  {
    "Name": "セガ千葉",
    "Address": "千葉県千葉市中央区富士見2-4-1",
    "Latitude": 35.6115641,
    "Longitude": 140.1158508
  },
  {
    "Name": "セガ我孫子",
    "Address": "千葉県我孫子市柴崎字天王台47-1",
    "Latitude": 35.8720546,
    "Longitude": 140.0418291
  },
  {
    "Name": "セガワールド成田",
    "Address": "千葉県成田市東町157-5",
    "Latitude": 35.7791768,
    "Longitude": 140.3232217
  },
  {
    "Name": "宝島新浦安店",
    "Address": "千葉県浦安市入船１－４－１イオン新浦安店４Ｆ",
    "Latitude": 35.6490398,
    "Longitude": 139.91478860000007
  },
  {
    "Name": "千葉レジャーランド成東店",
    "Address": "千葉県山武市姫島111-1",
    "Latitude": 35.5880798,
    "Longitude": 140.3905104
  },
  {
    "Name": "千葉レジャーランド野田店",
    "Address": "千葉県野田市吉春字鎌田776-1",
    "Latitude": 35.9592055,
    "Longitude": 139.8646198
  },
  {
    "Name": "ＤＡＩＫＥＩＥＮ",
    "Address": "千葉県市川市大町３５９",
    "Latitude": 35.7686191,
    "Longitude": 139.9589199
  },
  {
    "Name": "ラウンドワン八千代村上店",
    "Address": "千葉県八千代市村上南1-5-54",
    "Latitude": 35.7234214,
    "Longitude": 140.1174754
  },
  {
    "Name": "東京ガリバー松戸店",
    "Address": "千葉県松戸市松戸1230-1ピアザ",
    "Latitude": 35.7834128,
    "Longitude": 139.9007371
  },
  {
    "Name": "スポーツウェーブ鉄腕24",
    "Address": "千葉県千葉市中央区浜野町1025-59",
    "Latitude": 35.5541062,
    "Longitude": 140.1260538
  },
  {
    "Name": "アミューズメントエース津田沼",
    "Address": "千葉県船橋市前原西2-15-1",
    "Latitude": 35.6922976,
    "Longitude": 140.0201121
  },
  {
    "Name": "ゲームソニックビーム松戸",
    "Address": "千葉県松戸市松戸1172-1",
    "Latitude": 35.7844217,
    "Longitude": 139.9019849
  },
  {
    "Name": "セガ幕張",
    "Address": "千葉県千葉市美浜区ひび野1-8ﾒｯｾｱﾐｭｰｽﾞﾓｰﾙ1階",
    "Latitude": 35.6497534,
    "Longitude": 140.0423506
  },
  {
    "Name": "イスカンダル",
    "Address": "千葉県木更津市潮見4-1-2",
    "Latitude": 35.3696837,
    "Longitude": 139.9175383
  },
  {
    "Name": "AGスクエア松戸",
    "Address": "千葉県松戸市日暮1-1-1八柱駅第2ビル2階",
    "Latitude": 35.7914353,
    "Longitude": 139.9377312
  },
  {
    "Name": "ゲームオット本八幡",
    "Address": "千葉県市川市八幡２丁目１６ー６八幡ビル地下１Ｆ",
    "Latitude": 35.7217489,
    "Longitude": 139.9262181
  },
  {
    "Name": "ＧＡＭＥ　ＰＩＡ　津田沼",
    "Address": "千葉県習志野市津田沼1-2-1十三ビルB1F",
    "Latitude": 35.6799325,
    "Longitude": 140.0237316
  },
  {
    "Name": "YAZワールド野田七光台店",
    "Address": "千葉県野田市七光台4-2",
    "Latitude": 35.9822859,
    "Longitude": 139.8518062
  },
  {
    "Name": "ゲームゴジラ",
    "Address": "千葉県柏市柏１－１－１１ファミリかしわＢ１",
    "Latitude": 35.86153929999998,
    "Longitude": 139.97091669999992
  },
  {
    "Name": "タイトーステーション船橋",
    "Address": "千葉県船橋市本町1-6-1",
    "Latitude": 35.6998912,
    "Longitude": 139.9859705
  },
  {
    "Name": "スポーツウェーブ鉄腕２４稲毛長沼店",
    "Address": "千葉県千葉市稲毛区長沼原町６９７",
    "Latitude": 35.6620233,
    "Longitude": 140.1265534
  },
  {
    "Name": "キャッツアイ八千代店",
    "Address": "千葉県八千代市吉橋１８５１　ｉｓｍ緑ヶ丘内",
    "Latitude": 35.7335775,
    "Longitude": 140.0724747
  },
  {
    "Name": "ラウンドワン市原店",
    "Address": "千葉県市原市八幡北町3-5-1",
    "Latitude": 35.5478569,
    "Longitude": 140.12291
  },
  {
    "Name": "ラウンドワン習志野店",
    "Address": "千葉県習志野市芝園1-4-5",
    "Latitude": 35.6598877,
    "Longitude": 140.0226154
  },
  {
    "Name": "ラウンドワン市川鬼高店",
    "Address": "千葉県市川市鬼高4-1-3",
    "Latitude": 35.7116911,
    "Longitude": 139.9273883
  },
  {
    "Name": "タイトーFステーション市川妙典店",
    "Address": "千葉県市川市妙典５－３－１イオン市川妙典店２番街２階",
    "Latitude": 35.6925377,
    "Longitude": 139.9266786
  },
  {
    "Name": "ラウンドワンアリオ柏店",
    "Address": "千葉県柏市大島田950-1",
    "Latitude": 35.8323319,
    "Longitude": 140.0119419
  }
]