[
  {
    "Name": "セガ所沢",
    "Address": "埼玉県所沢市日吉町8-1",
    "Latitude": 35.788476,
    "Longitude": 139.471899
  },
  {
    "Name": "セガワールド入間",
    "Address": "埼玉県入間市東藤沢2-18",
    "Latitude": 35.8186519,
    "Longitude": 139.4183136
  },
  {
    "Name": "スクウェアワン幸手店",
    "Address": "埼玉県幸手市上高野２１４２－１",
    "Latitude": 36.0569966,
    "Longitude": 139.7142763
  },
  {
    "Name": "セガワールド籠原",
    "Address": "埼玉県熊谷市美土里町1-169",
    "Latitude": 36.1707166,
    "Longitude": 139.3184226
  },
  {
    "Name": "埼玉レジャーランド春日部店",
    "Address": "埼玉県春日部市増富谷際163-1",
    "Latitude": 35.9751984,
    "Longitude": 139.7523007
  },
  {
    "Name": "アミューズランドモナコ川越店",
    "Address": "埼玉県川越市新富町2-4-1",
    "Latitude": 35.913294,
    "Longitude": 139.4831383
  },
  {
    "Name": "ラウンドワン大宮店",
    "Address": "埼玉県さいたま市大宮区宮町4-90-7",
    "Latitude": 35.910868,
    "Longitude": 139.6255252
  },
  {
    "Name": "ラウンドワンわらび店",
    "Address": "埼玉県蕨市北町5-1-6",
    "Latitude": 35.8307831,
    "Longitude": 139.6742333
  },
  {
    "Name": "ｎａｍｃｏ熊谷店",
    "Address": "埼玉県熊谷市銀座2-97CARPA1階",
    "Latitude": 36.1419437,
    "Longitude": 139.3935332
  },
  {
    "Name": "キャッツアイ狭山店",
    "Address": "埼玉県狭山市入間川３１４１",
    "Latitude": 35.8467736,
    "Longitude": 139.4275588
  },
  {
    "Name": "HAP’1ゲームチッタ北戸田店",
    "Address": "埼玉県さいたま市南区辻8-24-10",
    "Latitude": 35.8297828,
    "Longitude": 139.6603374
  },
  {
    "Name": "ベネクス川越店",
    "Address": "埼玉県川越市大仙波340-1",
    "Latitude": 35.9148157,
    "Longitude": 139.499012
  },
  {
    "Name": "ラウンドワン栗橋店",
    "Address": "埼玉県久喜市小右衛門192-1",
    "Latitude": 36.1235137,
    "Longitude": 139.7151734
  },
  {
    "Name": "ラウンドワン入間店",
    "Address": "埼玉県入間市小谷田3-7-25",
    "Latitude": 35.8279698,
    "Longitude": 139.3760247
  },
  {
    "Name": "ウェアハウス三橋店",
    "Address": "埼玉県さいたま市西区三橋６－９５５－１",
    "Latitude": 35.9158957,
    "Longitude": 139.59574
  },
  {
    "Name": "ユーズランド越谷店",
    "Address": "埼玉県越谷市レイクタウン4-2-2イオンレイクタウンKAZE2F",
    "Latitude": 35.8826967,
    "Longitude": 139.8167356
  },
  {
    "Name": "ゲームシティプラス川越店",
    "Address": "埼玉県川越市泉町１－１",
    "Latitude": 35.9036075,
    "Longitude": 139.515002
  },
  {
    "Name": "ラウンドワンさいたま・上里店",
    "Address": "埼玉県児玉郡上里町金久保周川394-1",
    "Latitude": 36.206,
    "Longitude": 139.092
  },
  {
    "Name": "タイトーステーション所沢店",
    "Address": "埼玉県所沢市日吉町３－７",
    "Latitude": 35.7880928,
    "Longitude": 139.4723684
  },
  {
    "Name": "ラウンドワンららぽーと新三郷店",
    "Address": "埼玉県三郷市新三郷ららシティ3-1-1ららぽーと新三郷2F",
    "Latitude": 35.85945259999999,
    "Longitude": 139.86715660000007
  },
  {
    "Name": "ラウンドワンさいたま・鴻巣店",
    "Address": "埼玉県鴻巣市箕田3163-7",
    "Latitude": 36.0806388,
    "Longitude": 139.4902256
  },
  {
    "Name": "ギガステーション戸田店",
    "Address": "埼玉県戸田市大字美女木943-7",
    "Latitude": 35.8342903,
    "Longitude": 139.6532934
  },
  {
    "Name": "スピカ大宮南銀店",
    "Address": "埼玉県さいたま市大宮区仲町1-57",
    "Latitude": 35.9052095,
    "Longitude": 139.6260124
  },
  {
    "Name": "ユーズランド春日部店",
    "Address": "埼玉県春日部市下柳420-1イオンモール春日部2階",
    "Latitude": 35.98786020000001,
    "Longitude": 139.78776270000006
  },
  {
    "Name": "タイトーステーション大宮店",
    "Address": "埼玉県さいたま市大宮区大門町１－１",
    "Latitude": 35.9074369,
    "Longitude": 139.6256041
  },
  {
    "Name": "ラウンドワン上尾店",
    "Address": "埼玉県上尾市大字平塚917-1",
    "Latitude": 35.9858189,
    "Longitude": 139.6082372
  }
]