[
  {
    "Name": "セガ難波アビオン",
    "Address": "大阪府大阪市浪速区難波中2-3-15MMOﾋﾞﾙ1F･2F",
    "Latitude": 34.659786,
    "Longitude": 135.4990914
  },
  {
    "Name": "セガワールド布施",
    "Address": "大阪府東大阪市長堂1-1-1ﾛﾝﾓｰﾙ布施内",
    "Latitude": 34.6793301,
    "Longitude": 135.6010123
  },
  {
    "Name": "ＣＬＵＢＳＥＧＡ東梅田",
    "Address": "大阪府大阪市北区堂山町9-28",
    "Latitude": 34.7031007,
    "Longitude": 135.5039563
  },
  {
    "Name": "ハイテクランドセガ西中島",
    "Address": "大阪府大阪市淀川区西中島3-16-8深井ｾﾝﾀｰﾋﾞﾙ1･2F",
    "Latitude": 34.7260946,
    "Longitude": 135.4995264
  },
  {
    "Name": "ハイテクランドセガミスト２",
    "Address": "大阪府大阪市北区梅田1-11-4駅前第4ﾋﾞﾙB1F",
    "Latitude": 34.700559,
    "Longitude": 135.493324
  },
  {
    "Name": "セガワールドアポロ",
    "Address": "大阪府大阪市阿倍野区阿倍野筋1-5-31 ｱﾎﾟﾛﾋﾞﾙ3F",
    "Latitude": 34.6465412,
    "Longitude": 135.511716
  },
  {
    "Name": "ゲームポイントシャトーEX",
    "Address": "大阪府大阪市都島区東野田町3-9-3",
    "Latitude": 34.6978545,
    "Longitude": 135.5339318
  },
  {
    "Name": "ラウンドワン豊中店",
    "Address": "大阪府豊中市名神口1-1-1",
    "Latitude": 34.7574379,
    "Longitude": 135.4654647
  },
  {
    "Name": "ラウンドワン守口店",
    "Address": "大阪府守口市佐太東町2-6-14ジャガーグリーン2階",
    "Latitude": 34.7560845,
    "Longitude": 135.5884613
  },
  {
    "Name": "ラウンドワン東大阪店",
    "Address": "大阪府東大阪市若江南町1-2-12",
    "Latitude": 34.6530441,
    "Longitude": 135.6063264
  },
  {
    "Name": "ラウンドワン東淀川店",
    "Address": "大阪府大阪市東淀川区菅原7-14-28",
    "Latitude": 34.7427577,
    "Longitude": 135.5250375
  },
  {
    "Name": "セガワールド和泉",
    "Address": "大阪府和泉市肥子町2-4-41",
    "Latitude": 34.4867343,
    "Longitude": 135.4180002
  },
  {
    "Name": "ラウンドワン高槻店",
    "Address": "大阪府高槻市辻子3-6-4",
    "Latitude": 34.8326157,
    "Longitude": 135.6300541
  },
  {
    "Name": "ｎａｍｃｏ梅田店",
    "Address": "大阪府大阪市北区小松原町３－３ＯＳビル１～３Ｆ",
    "Latitude": 34.702782100000015,
    "Longitude": 135.50036270000004
  },
  {
    "Name": "ラウンドワン堺中央環状店",
    "Address": "大阪府堺市東区石原町2-241",
    "Latitude": 34.5569759,
    "Longitude": 135.5365126
  },
  {
    "Name": "ラウンドワン城東放出店",
    "Address": "大阪府大阪市城東区今福南3-4-38",
    "Latitude": 34.6963507,
    "Longitude": 135.5593262
  },
  {
    "Name": "ラウンドワン枚方店",
    "Address": "大阪府枚方市高野道1-20-20",
    "Latitude": 34.8432521,
    "Longitude": 135.6986977
  },
  {
    "Name": "ＣＬＵＢＳＥＧＡ藤井寺",
    "Address": "大阪府藤井寺市沢田１丁目２０-８",
    "Latitude": 34.5727764,
    "Longitude": 135.6058034
  },
  {
    "Name": "タイトーステーション難波店",
    "Address": "大阪府大阪市中央区難波千日前１５－１２",
    "Latitude": 34.6633633,
    "Longitude": 135.5031909
  },
  {
    "Name": "ラウンドワン岸和田店",
    "Address": "大阪府岸和田市八阪町2-11-1",
    "Latitude": 34.4565318,
    "Longitude": 135.3885664
  },
  {
    "Name": "ＰＡＬＯ京橋店",
    "Address": "大阪府大阪市都島区片町2-3-51　イオン京橋店",
    "Latitude": 34.696538,
    "Longitude": 135.5332958
  },
  {
    "Name": "ラウンドワン梅田店",
    "Address": "大阪府大阪市北区小松原町4-16",
    "Latitude": 34.7032478,
    "Longitude": 135.5010427
  },
  {
    "Name": "ｎａｍｃｏ大阪日本橋店",
    "Address": "大阪府大阪市浪速区難波中2-1-17コスモビル1～3階",
    "Latitude": 34.66295500000001,
    "Longitude": 135.50432139999998
  },
  {
    "Name": "ＹＡＺ寝屋川店",
    "Address": "大阪府寝屋川市石津中町25-26",
    "Latitude": 34.7802772,
    "Longitude": 135.6194363
  },
  {
    "Name": "ラウンドワン千日前店",
    "Address": "大阪府大阪市中央区難波1-3-1",
    "Latitude": 34.6675295,
    "Longitude": 135.5027825
  },
  {
    "Name": "ゲームディーノ",
    "Address": "大阪府茨木市永代町５",
    "Latitude": 34.8175163,
    "Longitude": 135.5756095
  },
  {
    "Name": "ラウンドワン堺駅前店",
    "Address": "大阪府堺市堺区戎島町4-44-3",
    "Latitude": 34.5834551,
    "Longitude": 135.4684377
  }
]