[
  {
    "Name": "セガ名取セッツウイングス",
    "Address": "宮城県名取市飯野坂字土城堀57-1",
    "Latitude": 38.1565826,
    "Longitude": 140.8883144
  },
  {
    "Name": "タイトーステーション仙台名掛丁店",
    "Address": "宮城県仙台市青葉区中央１－７－１３",
    "Latitude": 38.2620687,
    "Longitude": 140.8790829
  },
  {
    "Name": "ゲームコーナー東部",
    "Address": "宮城県仙台市若林区六丁の目中町26-60 斎喜東部ビル2F",
    "Latitude": 38.2509945,
    "Longitude": 140.9439531
  },
  {
    "Name": "セガワールド石巻",
    "Address": "宮城県石巻市大街道東4丁目1番45号",
    "Latitude": 38.4292522,
    "Longitude": 141.2852739
  },
  {
    "Name": "THE 3RD PLANET BiVi仙台店",
    "Address": "宮城県仙台市宮城野区榴岡2-1-25",
    "Latitude": 38.2610717,
    "Longitude": 140.8836853
  },
  {
    "Name": "プレイランドエフワンＲ",
    "Address": "宮城県仙台市青葉区中央２－６－６タベイビルＢ１Ｆ",
    "Latitude": 38.2584745,
    "Longitude": 140.8770499
  },
  {
    "Name": "ラウンドワン仙台苦竹店",
    "Address": "宮城県仙台市宮城野区苦竹1-7-10",
    "Latitude": 38.2681081,
    "Longitude": 140.9172368
  },
  {
    "Name": "スーパーノバ仙台利府",
    "Address": "宮城県宮城郡利府町加瀬字新前谷地５５－１",
    "Latitude": 38.3280286,
    "Longitude": 140.9756113
  },
  {
    "Name": "ＧＡＭＥＢＡＮＫ泉店",
    "Address": "宮城県仙台市泉区大沢２－５－４",
    "Latitude": 38.3527525,
    "Longitude": 140.877403
  },
  {
    "Name": "仙台レジャーランド一番町店",
    "Address": "宮城県仙台市青葉区一番町4-3-27ｶﾞﾘﾚｱ一番町ﾋﾞﾙ1Ｆ-3Ｆ",
    "Latitude": 38.263004499999994,
    "Longitude": 140.87088640000005
  },
  {
    "Name": "ＰＡＬＯ古川",
    "Address": "宮城県大崎市古川沢田筒場浦15　イオンタウン古川",
    "Latitude": 38.5974223,
    "Longitude": 140.9744483
  }
]