[
  {
    "Name": "岡山ジョイポリス",
    "Address": "岡山県岡山市北区下石井2-10-1",
    "Latitude": 34.6585729,
    "Longitude": 133.9185797
  },
  {
    "Name": "セガワールド倉敷",
    "Address": "岡山県倉敷市西中新田字八反割535-2",
    "Latitude": 34.583458,
    "Longitude": 133.7603071
  },
  {
    "Name": "テクノランド店",
    "Address": "岡山県岡山市北区大和町１－７－１２",
    "Latitude": 34.6791764,
    "Longitude": 133.9274976
  },
  {
    "Name": "アミパラ倉敷店",
    "Address": "岡山県倉敷市西中新田624-1アミパラボウル1F",
    "Latitude": 34.583458,
    "Longitude": 133.7603071
  },
  {
    "Name": "ユーズランド倉敷店",
    "Address": "岡山県倉敷市水江１番地イオンモール倉敷２Ｆ",
    "Latitude": 34.5928571,
    "Longitude": 133.7446414
  },
  {
    "Name": "ファンタジスタ",
    "Address": "岡山県倉敷市新倉敷駅前５－１９４",
    "Latitude": 34.5583269,
    "Longitude": 133.6767549
  },
  {
    "Name": "ゲームアイビス岡山店",
    "Address": "岡山県岡山市中区高屋３０８－１",
    "Latitude": 34.672465,
    "Longitude": 133.9667495
  },
  {
    "Name": "ラウンドワン岡山妹尾店",
    "Address": "岡山県岡山市南区妹尾3413-1",
    "Latitude": 34.6230198,
    "Longitude": 133.8695548
  }
]