[
  {
    "Name": "セガワールドＭＥＧＡ",
    "Address": "広島県広島市安佐南区中筋4-11-7",
    "Latitude": 34.4553881,
    "Longitude": 132.4788989
  },
  {
    "Name": "セガ海田",
    "Address": "広島県安芸郡海田町南大正町3-35",
    "Latitude": 34.3676621,
    "Longitude": 132.5336889
  },
  {
    "Name": "セガ尾道",
    "Address": "広島県尾道市新浜1-2-13",
    "Latitude": 34.4030818,
    "Longitude": 133.1862816
  },
  {
    "Name": "アミパラキャッスル店",
    "Address": "広島県福山市東深津町4-16-25福山キャッスルボウル2F",
    "Latitude": 34.4886204,
    "Longitude": 133.3882029
  },
  {
    "Name": "アミパラここじゃ店",
    "Address": "広島県東広島市西条町下見6-10-19 山手電気内",
    "Latitude": 34.4220197,
    "Longitude": 132.7350241
  },
  {
    "Name": "アミパラ広島店",
    "Address": "広島県広島市西区西観音町3-17",
    "Latitude": 34.3934716,
    "Longitude": 132.4363846
  },
  {
    "Name": "GIGA　ZONE",
    "Address": "広島県広島市南区松原町2-22",
    "Latitude": 34.3963632,
    "Longitude": 132.4765016
  },
  {
    "Name": "シネパーク広店",
    "Address": "広島県呉市広中町1-9",
    "Latitude": 34.2285551,
    "Longitude": 132.6294083
  },
  {
    "Name": "タイトーステーション広島紙屋町",
    "Address": "広島県広島市中区紙屋町２－２－２１",
    "Latitude": 34.3940688,
    "Longitude": 132.4560729
  },
  {
    "Name": "ラウンドワン広島店",
    "Address": "広島県広島市中区立町3-11",
    "Latitude": 34.3938966,
    "Longitude": 132.4602809
  },
  {
    "Name": "スペースV1廿日市店",
    "Address": "広島県廿日市市本町4-23",
    "Latitude": 34.3517324,
    "Longitude": 132.3343104
  },
  {
    "Name": "福山メトロポリス",
    "Address": "広島県福山市一文字町２４－１",
    "Latitude": 34.465874,
    "Longitude": 133.4072492
  },
  {
    "Name": "ラウンドワン福山店",
    "Address": "広島県福山市明神町1-9-28",
    "Latitude": 34.4891769,
    "Longitude": 133.3925026
  },
  {
    "Name": "フタバ図書アルティランド",
    "Address": "広島県広島市西区草津南４－７－１　アルパーク北棟２Ｆ",
    "Latitude": 34.375512,
    "Longitude": 132.3933319
  }
]