[
  {
    "Name": "半田メトロポリス",
    "Address": "愛知県半田市旭町3-11",
    "Latitude": 34.8749877,
    "Longitude": 136.9218407
  },
  {
    "Name": "中川メトロポリス",
    "Address": "愛知県名古屋市中川区江松3丁目110番地",
    "Latitude": 35.1253324,
    "Longitude": 136.8237287
  },
  {
    "Name": "ＣＬＵＢＳＥＧＡ金山",
    "Address": "愛知県名古屋市熱田区金山1-19-2",
    "Latitude": 35.1427181,
    "Longitude": 136.9021549
  },
  {
    "Name": "ＣＬＵＢＳＥＧＡ春日井",
    "Address": "愛知県春日井市岩野町菅廻間４１８０",
    "Latitude": 35.2666157,
    "Longitude": 136.9584656
  },
  {
    "Name": "ハイテクセガ豊田",
    "Address": "愛知県豊田市深田町1丁目65-1",
    "Latitude": 35.0678723,
    "Longitude": 137.1238001
  },
  {
    "Name": "豊川メトロポリス",
    "Address": "愛知県豊川市下長山町上アライ１４－１",
    "Latitude": 34.8025832,
    "Longitude": 137.3845019
  },
  {
    "Name": "セガワールド飯村",
    "Address": "愛知県豊橋市飯村町字西山25-121",
    "Latitude": 34.7493359,
    "Longitude": 137.4139563
  },
  {
    "Name": "名古屋レジャーランド大高店",
    "Address": "愛知県名古屋市緑区大高町字忠治",
    "Latitude": 35.0484796,
    "Longitude": 136.9495852
  },
  {
    "Name": "名古屋レジャーランド内田橋店",
    "Address": "愛知県名古屋市南区内田橋2丁目26-22",
    "Latitude": 35.1137608,
    "Longitude": 136.9098442
  },
  {
    "Name": "ラウンドワン千種店",
    "Address": "名古屋市千種区新栄　3-20-17タイホー千種駅南ビル8F",
    "Latitude": 35.1681029,
    "Longitude": 136.9279316
  },
  {
    "Name": "ポート２４御津店",
    "Address": "愛知県豊川市御津町下佐脇仲荒１９－３",
    "Latitude": 34.7969208,
    "Longitude": 137.3211902
  },
  {
    "Name": "M'S PARK豊田店",
    "Address": "愛知県豊田市寿町3-21、22",
    "Latitude": 35.0566856,
    "Longitude": 137.1404489
  },
  {
    "Name": "M'S PARK刈谷店",
    "Address": "愛知県刈谷市稲場町3-206",
    "Latitude": 35.0054807,
    "Longitude": 137.0014037
  },
  {
    "Name": "ＷＡＶＥ豊川白鳥店",
    "Address": "愛知県豊川市白鳥町京次55-1",
    "Latitude": 34.8246954,
    "Longitude": 137.3409478
  },
  {
    "Name": "ポート２４一社",
    "Address": "愛知県名古屋市名東区高社1-260",
    "Latitude": 35.1684564,
    "Longitude": 136.9952549
  },
  {
    "Name": "ゲーム キングジョイ",
    "Address": "愛知県名古屋市中区栄3-3-32",
    "Latitude": 35.1679662,
    "Longitude": 136.9050735
  },
  {
    "Name": "コムテックタワー",
    "Address": "愛知県名古屋市中村区名駅4-10-2",
    "Latitude": 35.1695002,
    "Longitude": 136.8863944
  },
  {
    "Name": "ゲームプラザタイガー一宮",
    "Address": "愛知県一宮市富士３－１－３３",
    "Latitude": 35.302285,
    "Longitude": 136.8187891
  },
  {
    "Name": "コムテックスクウェア",
    "Address": "愛知県名古屋市中区金山1-16-8",
    "Latitude": 35.14399,
    "Longitude": 136.8998829
  },
  {
    "Name": "コムテックプラザ赤池",
    "Address": "愛知県日進市赤池1-2901",
    "Latitude": 35.120836,
    "Longitude": 137.0177309
  },
  {
    "Name": "ＧＲＥＡ",
    "Address": "愛知県名古屋市千種区今池５－２２－１７",
    "Latitude": 35.1674719,
    "Longitude": 136.9369788
  },
  {
    "Name": "ゲームファンタジーランドナイル",
    "Address": "愛知県東海市名和町三番割上４０－２",
    "Latitude": 35.0629999,
    "Longitude": 136.9124252
  },
  {
    "Name": "ユーズランド東浦",
    "Address": "愛知県知多郡東浦町緒川旭13-2イオンモール東浦2F",
    "Latitude": 34.9817995,
    "Longitude": 136.9705127
  },
  {
    "Name": "ポート２４幸田店",
    "Address": "愛知県額田郡幸田町大字相見字沖原1-3",
    "Latitude": 34.8887434,
    "Longitude": 137.1620276
  },
  {
    "Name": "アーバンスクエア大須店",
    "Address": "愛知県名古屋市中区大須３－３０－３１",
    "Latitude": 35.1594577,
    "Longitude": 136.9054375
  },
  {
    "Name": "ゲームファンタジアン岡崎店",
    "Address": "愛知県岡崎市錦町2-4",
    "Latitude": 34.9737743,
    "Longitude": 137.1600506
  },
  {
    "Name": "楽市楽座022名古屋店",
    "Address": "愛知県北名古屋市中之郷新明４５－２",
    "Latitude": 35.239849,
    "Longitude": 136.8488049
  },
  {
    "Name": "小牧メトロポリス",
    "Address": "愛知県小牧市間々片山181",
    "Latitude": 35.296162,
    "Longitude": 136.9089962
  },
  {
    "Name": "ラウンドワン中川１号線店",
    "Address": "愛知県名古屋市中川区法蔵町2-23",
    "Latitude": 35.1236443,
    "Longitude": 136.8636045
  },
  {
    "Name": "ゲームファンタジアン蒲郡店",
    "Address": "愛知県蒲郡市竹谷町中野1-12",
    "Latitude": 34.8289479,
    "Longitude": 137.2112677
  },
  {
    "Name": "M'S PARK三郷店西館",
    "Address": "愛知県尾張旭市南原山町赤土２０７",
    "Latitude": 35.2150522,
    "Longitude": 137.0450143
  },
  {
    "Name": "ラウンドワン名古屋西春店",
    "Address": "愛知県北名古屋市宇福寺神明15",
    "Latitude": 35.2548498,
    "Longitude": 136.8436265
  },
  {
    "Name": "ＶＡＭＰ中川店",
    "Address": "愛知県名古屋市中川区新家１－２００７",
    "Latitude": 35.1559029,
    "Longitude": 136.8061309
  },
  {
    "Name": "ラウンドワン半田店",
    "Address": "愛知県半田市瑞穂町6-7-8",
    "Latitude": 34.885288,
    "Longitude": 136.9411831
  },
  {
    "Name": "ポート２４八事店",
    "Address": "愛知県名古屋市昭和区広路町北石坂１０２番地４",
    "Latitude": 35.1370658,
    "Longitude": 136.9643439
  },
  {
    "Name": "ラウンドワン豊橋店",
    "Address": "愛知県豊橋市大岩町岩田27-2",
    "Latitude": 34.7237006,
    "Longitude": 137.4326113
  },
  {
    "Name": "ゲームファンタジアン長久手店",
    "Address": "愛知県長久手市武蔵塚705",
    "Latitude": 35.1714189,
    "Longitude": 137.0454551
  },
  {
    "Name": "名古屋レジャーランドささしま店",
    "Address": "愛知県名古屋市中村区平池町４－６０－１４ラバーモささしま１Ｆ",
    "Latitude": 35.16264889999999,
    "Longitude": 136.88496009999994
  },
  {
    "Name": "ファンタジープラザ名古屋",
    "Address": "愛知県名古屋市北区玄馬町２３４－１ﾄﾞﾝｷﾎｰﾃ名古屋本店２階",
    "Latitude": 35.22611820000001,
    "Longitude": 136.9089937999999
  },
  {
    "Name": "ＡＤＸマミー岡崎店",
    "Address": "愛知県岡崎市井田新町６－３",
    "Latitude": 34.9768066,
    "Longitude": 137.1622077
  },
  {
    "Name": "タイトーステーション大須店",
    "Address": "愛知県名古屋市中区大須３－２０－７",
    "Latitude": 35.1596521,
    "Longitude": 136.9047403
  }
]