[
  {
    "Name": "池袋ＧｉＧＯ",
    "Address": "東京都豊島区東池袋1-21-1",
    "Latitude": 35.7302146,
    "Longitude": 139.7158743
  },
  {
    "Name": "ハイテクランドセガシブヤ",
    "Address": "東京都渋谷区渋谷1-14-14",
    "Latitude": 35.6600164,
    "Longitude": 139.7025897
  },
  {
    "Name": "ＣＬＵＢＳＥＧＡ新宿西口",
    "Address": "東京都新宿区西新宿1-12-5",
    "Latitude": 35.6894655,
    "Longitude": 139.6972197
  },
  {
    "Name": "新宿スポーツランド本館",
    "Address": "東京都新宿区新宿3-22-12",
    "Latitude": 35.6931679,
    "Longitude": 139.7018496
  },
  {
    "Name": "セガワールドアルカス",
    "Address": "東京都府中市宮西町2-5-1さくら三番館",
    "Latitude": 35.6703528,
    "Longitude": 139.4781451
  },
  {
    "Name": "セガワールド船堀",
    "Address": "東京都江戸川区船堀1-6-11",
    "Latitude": 35.6848314,
    "Longitude": 139.8638527
  },
  {
    "Name": "セガ神楽坂",
    "Address": "東京都新宿区神楽坂2-11",
    "Latitude": 35.7010626,
    "Longitude": 139.7418318
  },
  {
    "Name": "セガワールド大森",
    "Address": "東京都大田区山王2-1-5",
    "Latitude": 35.5900117,
    "Longitude": 139.7284234
  },
  {
    "Name": "ＣＬＵＢＳＥＧＡ立川",
    "Address": "東京都立川市柴崎町3-2-1ｻｻﾞﾝﾋﾞﾙ1F",
    "Latitude": 35.6968522,
    "Longitude": 139.4111072
  },
  {
    "Name": "ＣＬＵＢＳＥＧＡ自由ヶ丘",
    "Address": "東京都目黒区自由ヶ丘2-10-9",
    "Latitude": 35.6084299,
    "Longitude": 139.6675416
  },
  {
    "Name": "ハイテクランドセガ立石",
    "Address": "東京都葛飾区立石7-2-1",
    "Latitude": 35.738992,
    "Longitude": 139.8493714
  },
  {
    "Name": "ｎａｍｃｏ巣鴨店",
    "Address": "東京都豊島区巣鴨１－１５－１ミヤタビルB1F・B2F",
    "Latitude": 35.7349923,
    "Longitude": 139.7351561
  },
  {
    "Name": "ｎａｍｃｏ荻窪店",
    "Address": "東京都杉並区上荻１－１３－１０ハクサンビル",
    "Latitude": 35.7050191,
    "Longitude": 139.6181355
  },
  {
    "Name": "東京レジャーランド小岩店",
    "Address": "東京都江戸川区南小岩8-15-3",
    "Latitude": 35.7343843,
    "Longitude": 139.8834962
  },
  {
    "Name": "アミューズランドモナコ調布１号店",
    "Address": "東京都調布市布田1-52-3",
    "Latitude": 35.6516255,
    "Longitude": 139.5457152
  },
  {
    "Name": "アミューズランドモナコ中野店",
    "Address": "東京都中野区中野2-26-10",
    "Latitude": 35.7041906,
    "Longitude": 139.6660937
  },
  {
    "Name": "ゲームスポット21",
    "Address": "東京都新宿区西新宿1-15-4",
    "Latitude": 35.6888961,
    "Longitude": 139.6974863
  },
  {
    "Name": "ＧＡＭＥサントロペ池袋",
    "Address": "東京都豊島区東池袋1-29サントロペビル2F",
    "Latitude": 35.73040490000002,
    "Longitude": 139.7165266
  },
  {
    "Name": "プラサカプコン吉祥寺店",
    "Address": "東京都武蔵野市吉祥寺本町1-10-1いなりやビルB1F",
    "Latitude": 35.705361000000025,
    "Longitude": 139.57909799999993
  },
  {
    "Name": "ラウンドワン南砂店",
    "Address": "東京都江東区南砂6-7-15トピレックプラザ4F",
    "Latitude": 35.6725553,
    "Longitude": 139.8356127
  },
  {
    "Name": "立川オスローバッティングセンター",
    "Address": "東京都立川市錦町1-4-27立川オスロービル2、3F",
    "Latitude": 35.6963719,
    "Longitude": 139.4166211
  },
  {
    "Name": "Ｔ／Ｓ新宿南口ゲームワールド店",
    "Address": "東京都新宿区新宿３－３５－８",
    "Latitude": 35.6899128,
    "Longitude": 139.7023052
  },
  {
    "Name": "タイトーステーション渋谷店",
    "Address": "東京都渋谷区渋谷1-24-12渋谷東映プラザビルB1F",
    "Latitude": 35.65999700000001,
    "Longitude": 139.70190600000004
  },
  {
    "Name": "タイトーステーション新宿東口",
    "Address": "東京都新宿区新宿３－２２－７",
    "Latitude": 35.693229,
    "Longitude": 139.7013524
  },
  {
    "Name": "HEY",
    "Address": "東京都千代田区外神田1-10-5廣瀬本社ビル１階～４階",
    "Latitude": 35.6990447,
    "Longitude": 139.7708389
  },
  {
    "Name": "ＧＡＭＥシルクハット蒲田M2",
    "Address": "東京都大田区西蒲田7-6-3プリンス会館",
    "Latitude": 35.563624,
    "Longitude": 139.7147733
  },
  {
    "Name": "アムネット五反田店",
    "Address": "東京都品川区西五反田1-27-5",
    "Latitude": 35.624524,
    "Longitude": 139.7228389
  },
  {
    "Name": "タイトーステーション町田店",
    "Address": "東京都町田市原町田６－２１－２３",
    "Latitude": 35.5426565,
    "Longitude": 139.4483734
  },
  {
    "Name": "セガ秋葉原1号館",
    "Address": "東京都千代田区外神田1-10-9",
    "Latitude": 35.6987804,
    "Longitude": 139.7710051
  },
  {
    "Name": "秋葉原ＧｉＧＯ",
    "Address": "東京都千代田区外神田1-15-1",
    "Latitude": 35.697775,
    "Longitude": 139.7714551
  },
  {
    "Name": "ラウンドワン八王子店",
    "Address": "東京都八王子市万町53",
    "Latitude": 35.6519277,
    "Longitude": 139.3337211
  },
  {
    "Name": "東京レジャーランド秋葉原店",
    "Address": "東京都千代田区外神田1-9-5",
    "Latitude": 35.6988776,
    "Longitude": 139.7701162
  },
  {
    "Name": "ｎａｍｃｏ中野店",
    "Address": "東京都中野区中野５－５２－１５中野ブロードウェイ別館",
    "Latitude": 35.70916089398782,
    "Longitude": 139.66611970678068
  },
  {
    "Name": "ラウンドワン町田店",
    "Address": "東京都町田市森野1-13-14",
    "Latitude": 35.544248,
    "Longitude": 139.4431155
  },
  {
    "Name": "ドラマ野猿店",
    "Address": "東京都八王子市大塚628-1",
    "Latitude": 35.6375671,
    "Longitude": 139.4199675
  },
  {
    "Name": "ドラマ八王子高倉店",
    "Address": "東京都八王子市高倉町55-4",
    "Latitude": 35.6650608,
    "Longitude": 139.3664651
  },
  {
    "Name": "ドットコム葛西",
    "Address": "東京都江戸川区中葛西3-35-5",
    "Latitude": 35.6643259,
    "Longitude": 139.8721749
  },
  {
    "Name": "アミューズランドモナコ立川店",
    "Address": "東京都立川市柴崎町３－４－１カワイヤビル",
    "Latitude": 35.6969701,
    "Longitude": 139.4146164
  },
  {
    "Name": "ラウンドワン板橋店",
    "Address": "東京都板橋区相生町16",
    "Latitude": 35.7764525,
    "Longitude": 139.6787401
  },
  {
    "Name": "ｎａｍｃｏ王子サンスクエア店",
    "Address": "東京都北区王子１－４－１サンスクエア２階",
    "Latitude": 35.7529261,
    "Longitude": 139.7388576
  },
  {
    "Name": "ＹＡＺワールド八王子みなみ野店",
    "Address": "東京都八王子市みなみ野１－２－１アクロスモール３Ｆ",
    "Latitude": 35.630858,
    "Longitude": 139.3230201
  },
  {
    "Name": "田無ファミリーランドゲームコーナー",
    "Address": "東京都西東京市西原町４－２－９",
    "Latitude": 35.7359751,
    "Longitude": 139.5244931
  },
  {
    "Name": "ユーズランド日の出店",
    "Address": "東京都西多摩郡日の出町大字平井237-3イオンモール日の出３Ｆ",
    "Latitude": 35.7381821,
    "Longitude": 139.247778
  },
  {
    "Name": "東京レジャーランド秋葉原２号店",
    "Address": "東京都千代田区外神田４－３－３ミナミビル６-７Ｆ",
    "Latitude": 35.7007521,
    "Longitude": 139.7718773
  },
  {
    "Name": "タイトーＦステーション西葛西",
    "Address": "東京都江戸川区西葛西６－６－１０",
    "Latitude": 35.664514,
    "Longitude": 139.8575203
  },
  {
    "Name": "トライアミューズメントタワー新館",
    "Address": "東京都千代田区外神田４－４－７ＭＴビル３Ｆ-１０Ｆ",
    "Latitude": 35.7009468,
    "Longitude": 139.7696023
  },
  {
    "Name": "ＣＬＵＢＳＥＧＡ秋葉原 新館",
    "Address": "東京都千代田区外神田1-11-11",
    "Latitude": 35.6992248,
    "Longitude": 139.7709217
  },
  {
    "Name": "セガ代々木",
    "Address": "東京都渋谷区代々木1-35-16",
    "Latitude": 35.6836719,
    "Longitude": 139.7018722
  },
  {
    "Name": "ＳＡＭ’Ｓ　ＴＯＷＮ上野",
    "Address": "東京都台東区上野４－６－９湯島商事ビル",
    "Latitude": 35.7088395,
    "Longitude": 139.7742936
  },
  {
    "Name": "セガ秋葉原",
    "Address": "東京都千代田区外神田 1-15-9",
    "Latitude": 35.6980389,
    "Longitude": 139.7724161
  },
  {
    "Name": "エムエムランド",
    "Address": "東京都世田谷区北沢2-3-6",
    "Latitude": 35.6601153,
    "Longitude": 139.6681372
  },
  {
    "Name": "AGスクエア赤羽",
    "Address": "東京都北区赤羽1-7-9",
    "Latitude": 35.7790173,
    "Longitude": 139.7223472
  },
  {
    "Name": "ラウンドワン府中本町駅前店",
    "Address": "東京都府中市本町1-13-3カネタビル",
    "Latitude": 35.6671687,
    "Longitude": 139.4773503
  },
  {
    "Name": "GAMEピーアーク青井",
    "Address": "東京都足立区一ツ家3-8-12",
    "Latitude": 35.7789168,
    "Longitude": 139.8146334
  },
  {
    "Name": "ラウンドワン池袋店",
    "Address": "東京都豊島区東池袋1-14-1",
    "Latitude": 35.7301396,
    "Longitude": 139.715166
  },
  {
    "Name": "アミューズメントモナコ吉祥寺店",
    "Address": "東京都武蔵野市吉祥寺本町1-9-7高橋ビル",
    "Latitude": 35.704686,
    "Longitude": 139.5754071
  },
  {
    "Name": "セガ竹の塚",
    "Address": "東京都足立区竹の塚6-8",
    "Latitude": 35.7948093,
    "Longitude": 139.7925987
  },
  {
    "Name": "東京レジャーランド亀有店",
    "Address": "東京都葛飾区亀有３－２１－２",
    "Latitude": 35.7654192,
    "Longitude": 139.8479365
  },
  {
    "Name": "フェドラＢＩＧＦＵＮ平和島店",
    "Address": "東京都大田区平和島1-1-1 BIGFUN平和島3F",
    "Latitude": 35.5852404,
    "Longitude": 139.7399285
  },
  {
    "Name": "ラウンドワンダイバーシティ東京プラザ店",
    "Address": "東京都江東区青海1-1-10 ダイバーシティ東京プラザ6階",
    "Latitude": 35.6254168,
    "Longitude": 139.7759543
  },
  {
    "Name": "タイトーFステーションオリナス錦糸町店",
    "Address": "東京都墨田区太平4-1-2オリナスモール地下1階",
    "Latitude": 35.7007986,
    "Longitude": 139.8157855
  }
]