[
  {
    "Name": "セガワールド宇都宮",
    "Address": "栃木県宇都宮市東宿郷5-1-7",
    "Latitude": 36.5583104,
    "Longitude": 139.9088155
  },
  {
    "Name": "ナムコプラボ宇都宮店",
    "Address": "栃木県宇都宮市簗瀬町１６０６－１　Ｐ＆Ｄビル",
    "Latitude": 36.5438973,
    "Longitude": 139.8915485
  },
  {
    "Name": "INTER PARK+1宇都宮",
    "Address": "栃木県宇都宮市インターパーク６－５－１",
    "Latitude": 36.4881173,
    "Longitude": 139.905569
  },
  {
    "Name": "ゲーム＆ビリヤード　遊ｉｎｇ",
    "Address": "栃木県宇都宮市石井町下平出境27",
    "Latitude": 36.547626,
    "Longitude": 139.9259477
  },
  {
    "Name": "ラウンドワン宇都宮店",
    "Address": "栃木県宇都宮市江曽島町2072-1",
    "Latitude": 36.5406864,
    "Longitude": 139.8868934
  },
  {
    "Name": "フェドラＰ＆Ｄ佐野",
    "Address": "栃木県佐野市高萩町1340",
    "Latitude": 36.2973133,
    "Longitude": 139.6056474
  },
  {
    "Name": "ラウンドワン足利店",
    "Address": "栃木県足利市堀込町宮前196-1",
    "Latitude": 36.3157284,
    "Longitude": 139.4365586
  },
  {
    "Name": "ラウンドワン栃木・樋ノ口店",
    "Address": "栃木県栃木市樋ノ口町55-1",
    "Latitude": 36.3578008,
    "Longitude": 139.7569638
  },
  {
    "Name": "タイトーFステーションおやま",
    "Address": "栃木県小山市喜沢1475-52",
    "Latitude": 36.3338362,
    "Longitude": 139.8065106
  }
]