[
  {
    "Name": "パームトップス",
    "Address": "神奈川県厚木市中町4-15-9",
    "Latitude": 35.4390462,
    "Longitude": 139.3619056
  },
  {
    "Name": "アミューズメントランドYAZ平塚店",
    "Address": "神奈川県平塚市田村1-4-26",
    "Latitude": 35.3653824,
    "Longitude": 139.3605687
  },
  {
    "Name": "ムトス相模原店",
    "Address": "神奈川県相模原市中央区中央２－１－５",
    "Latitude": 35.5735451,
    "Longitude": 139.3710572
  },
  {
    "Name": "ナムコプラボ都筑店",
    "Address": "神奈川県横浜市都筑区川和町846-1",
    "Latitude": 35.5197643,
    "Longitude": 139.553407
  },
  {
    "Name": "ＣＬＵＢＳＥＧＡ相模大野",
    "Address": "神奈川県相模原市南区相模大野3-13-2 J-SPARK",
    "Latitude": 35.5321942,
    "Longitude": 139.4358387
  },
  {
    "Name": "ベネクス平塚店",
    "Address": "神奈川県平塚市四之宮６－１０－２７",
    "Latitude": 35.3623466,
    "Longitude": 139.35958
  },
  {
    "Name": "ＧＡＭＥシルクハット本厚木",
    "Address": "神奈川県厚木市中町2-4-13本厚木駅前ビル",
    "Latitude": 35.440577,
    "Longitude": 139.3653545
  },
  {
    "Name": "シルクハット横須賀中央",
    "Address": "神奈川県横須賀市若松町1-5プライムビルＢ1Ｆ",
    "Latitude": 35.27914715244167,
    "Longitude": 139.67071820428177
  },
  {
    "Name": "ラウンドワン高津店",
    "Address": "神奈川県川崎市高津区二子4-8-1",
    "Latitude": 35.6024062,
    "Longitude": 139.6189389
  },
  {
    "Name": "ゲームインファンファン藤沢店",
    "Address": "神奈川県藤沢市鵠沼石上1-3-8",
    "Latitude": 35.3365873,
    "Longitude": 139.4891721
  },
  {
    "Name": "プラサカプコン横須賀店",
    "Address": "神奈川県横須賀市若松町2-30モアーズシティ4F",
    "Latitude": 35.27836970000002,
    "Longitude": 139.669927
  },
  {
    "Name": "フリーダム",
    "Address": "神奈川県横浜市西区南幸１丁目5－27",
    "Latitude": 35.4644359,
    "Longitude": 139.6199068
  },
  {
    "Name": "イミグランデ相模原",
    "Address": "神奈川県相模原市中央区東淵野辺４－１５－１",
    "Latitude": 35.55588,
    "Longitude": 139.4123568
  },
  {
    "Name": "ラウンドワン横浜綱島店",
    "Address": "神奈川県横浜市港北区樽町2-6-40",
    "Latitude": 35.5319981,
    "Longitude": 139.6371792
  },
  {
    "Name": "ラウンドワン横浜駅西口店",
    "Address": "神奈川県横浜市西区南幸2-8-16",
    "Latitude": 35.4638693,
    "Longitude": 139.6181182
  },
  {
    "Name": "ベネクス川崎",
    "Address": "神奈川県川崎市川崎区鋼管通り４－８－３",
    "Latitude": 35.5120498,
    "Longitude": 139.713784
  },
  {
    "Name": "ＣＬＵＢＳＥＧＡ綱島",
    "Address": "神奈川県横浜市港北区綱島西2-6-29",
    "Latitude": 35.5363755,
    "Longitude": 139.6328433
  },
  {
    "Name": "神奈川レジャーランド厚木店",
    "Address": "神奈川県厚木市戸室5-31-1",
    "Latitude": 35.4477252,
    "Longitude": 139.3431153
  },
  {
    "Name": "ＧＡＭＥシルクハット川崎ダイス",
    "Address": "神奈川県川崎市川崎区駅前本町８番地ﾀﾞｲｽビルB2F",
    "Latitude": 35.5332943,
    "Longitude": 139.7003429
  },
  {
    "Name": "ＣＬＵＢＳＥＧＡ新杉田",
    "Address": "神奈川県横浜市磯子区杉田1‐1‐1らびすた新杉田2F",
    "Latitude": 35.383852,
    "Longitude": 139.6182445
  },
  {
    "Name": "ラウンドワン川崎大師店",
    "Address": "神奈川県川崎市川崎区殿町1-5-1",
    "Latitude": 35.5380415,
    "Longitude": 139.7416951
  },
  {
    "Name": "小田原メトロポリス",
    "Address": "神奈川県小田原市前川字相坪219-4",
    "Latitude": 35.2872343,
    "Longitude": 139.2303019
  },
  {
    "Name": "ドラマ港北インター店",
    "Address": "神奈川県横浜市都筑区東方町321-6",
    "Latitude": 35.5192486,
    "Longitude": 139.5847936
  },
  {
    "Name": "ミリアンパークネクサス",
    "Address": "神奈川県厚木市田村町9-25",
    "Latitude": 35.4349993,
    "Longitude": 139.3578503
  },
  {
    "Name": "イミグランデ大和店",
    "Address": "神奈川県大和市鶴間2-12-27",
    "Latitude": 35.4914957,
    "Longitude": 139.4548227
  },
  {
    "Name": "ウェアハウス川崎九龍城",
    "Address": "神奈川県川崎市川崎区日進町3-7",
    "Latitude": 35.5269314,
    "Longitude": 139.6939548
  },
  {
    "Name": "ｎａｍｃｏラゾーナ川崎店",
    "Address": "神奈川県川崎市幸区堀川町72-1ﾗｿﾞｰﾅ川崎ﾌﾟﾗｻﾞ4階",
    "Latitude": 35.5319029,
    "Longitude": 139.6958822
  },
  {
    "Name": "タイトーステーション横浜西口五番街店",
    "Address": "神奈川県横浜市西区南幸１－１２ー９",
    "Latitude": 35.4646858,
    "Longitude": 139.6195818
  },
  {
    "Name": "イミグランデ溝口店",
    "Address": "神奈川県川崎市高津区溝口１－１４－７　第二カスタムビル",
    "Latitude": 35.6004909,
    "Longitude": 139.6144708
  },
  {
    "Name": "アピナ橋本店",
    "Address": "神奈川県相模原市緑区西橋本５－１－１ラフロール駐車場棟１階",
    "Latitude": 35.5897683,
    "Longitude": 139.3389152
  },
  {
    "Name": "イミグランデ日吉店３",
    "Address": "神奈川県横浜市港北区日吉２－４－２",
    "Latitude": 35.5544916,
    "Longitude": 139.646611
  }
]