[
  {
    "Name": "ハイパーメッセ",
    "Address": "福岡県北九州市小倉南区北方4-6-7",
    "Latitude": 33.8391643,
    "Longitude": 130.8741119
  },
  {
    "Name": "アミューズメントMGM陣原店",
    "Address": "福岡県北九州市八幡西区陣原1-2-12",
    "Latitude": 33.8674058,
    "Longitude": 130.744
  },
  {
    "Name": "ｎａｍｃｏ博多バスターミナル店",
    "Address": "福岡県福岡市博多区博多駅中央街２－１博多バスターミナル７階",
    "Latitude": 33.591341,
    "Longitude": 130.4215222
  },
  {
    "Name": "タイトーステーション福岡天神",
    "Address": "福岡県福岡市中央区天神２－６－３５サザンクロスビル",
    "Latitude": 33.5896254,
    "Longitude": 130.3972983
  },
  {
    "Name": "楽市楽座箱崎店2F",
    "Address": "福岡県福岡市東区箱崎5-1-8",
    "Latitude": 33.6242624,
    "Longitude": 130.4196214
  },
  {
    "Name": "ラウンドワン福岡天神店",
    "Address": "福岡県福岡市中央区天神2-6-12",
    "Latitude": 33.589463,
    "Longitude": 130.3967853
  },
  {
    "Name": "ラウンドワン小倉店",
    "Address": "福岡県北九州市小倉北区西港町15-65",
    "Latitude": 33.8975963,
    "Longitude": 130.8598416
  },
  {
    "Name": "ラウンドワン博多半道橋店",
    "Address": "福岡県福岡市博多区半道橋2-2-8",
    "Latitude": 33.584067,
    "Longitude": 130.4383464
  },
  {
    "Name": "ラウンドワン大野城店",
    "Address": "福岡県大野城市御笠川1-18-16",
    "Latitude": 33.5464865,
    "Longitude": 130.4821573
  },
  {
    "Name": "大牟田Ｊ－ＧＡＭＥ",
    "Address": "福岡県大牟田市旭町３－３－７",
    "Latitude": 33.0385115,
    "Longitude": 130.4513097
  },
  {
    "Name": "Ｇ－ｐａｌａ小倉",
    "Address": "福岡県北九州市小倉南区上葛原３－１４－１",
    "Latitude": 33.8411674,
    "Longitude": 130.9075449
  }
]