[
  {
    "Name": "群馬レジャーランド伊勢崎店",
    "Address": "群馬県伊勢崎市連取町3066-1",
    "Latitude": 36.318282,
    "Longitude": 139.1723119
  },
  {
    "Name": "アピナ太田店",
    "Address": "群馬県太田市内ケ島町907-1",
    "Latitude": 36.2829707,
    "Longitude": 139.3984248
  },
  {
    "Name": "群馬レジャーランド高崎駅東口店２階",
    "Address": "群馬県高崎市江木町333-1ＡＣＴビル２Ｆ",
    "Latitude": 36.329865000000005,
    "Longitude": 139.0128569999999
  },
  {
    "Name": "インターワールド伊勢崎店",
    "Address": "群馬県伊勢崎市宮子町3425-4",
    "Latitude": 36.3315084,
    "Longitude": 139.1624845
  },
  {
    "Name": "ユーズランド太田店",
    "Address": "群馬県太田市石原町８１番地イオンモール太田２Ｆ",
    "Latitude": 36.2999134,
    "Longitude": 139.4066148
  },
  {
    "Name": "群馬レジャーランド太田店",
    "Address": "群馬県太田市西矢島町162番地2",
    "Latitude": 36.2681357,
    "Longitude": 139.375791
  },
  {
    "Name": "群馬レジャーランド藤岡店",
    "Address": "群馬県藤岡市中２００２－１",
    "Latitude": 36.2743138,
    "Longitude": 139.0718248
  },
  {
    "Name": "ユーズランド高崎店",
    "Address": "群馬県高崎市棟高町１４００番地イオンモール高崎２Ｆ",
    "Latitude": 36.3855361,
    "Longitude": 139.004436
  },
  {
    "Name": "マトリクス前橋",
    "Address": "群馬県前橋市小相木町５５８－１",
    "Latitude": 36.3727507,
    "Longitude": 139.0590845
  },
  {
    "Name": "ラウンドワン前橋店",
    "Address": "群馬県前橋市天川大島町1101-1",
    "Latitude": 36.3687628,
    "Longitude": 139.1052489
  },
  {
    "Name": "プレビ劇場伊勢崎",
    "Address": "群馬県伊勢崎市西小保方町３４８スマーク伊勢崎店内３階",
    "Latitude": 36.3477748,
    "Longitude": 139.2345173
  }
]