[
  {
    "Name": "ピンクパンサー下妻店",
    "Address": "茨城県下妻市小島884-10",
    "Latitude": 36.1702653,
    "Longitude": 139.9665309
  },
  {
    "Name": "プラサカプコン土浦店",
    "Address": "茨城県土浦市真鍋2-1-29",
    "Latitude": 36.0903063,
    "Longitude": 140.1989081
  },
  {
    "Name": "ゲームパニックつくば",
    "Address": "茨城県土浦市中村東１－１－１サンタスワールド内",
    "Latitude": 36.0452475,
    "Longitude": 140.169831
  },
  {
    "Name": "アピナ下館店",
    "Address": "茨城県筑西市玉戸１０１２－３",
    "Latitude": 36.2950278,
    "Longitude": 139.9451743
  },
  {
    "Name": "ピンクパンサー水戸赤塚店",
    "Address": "茨城県水戸市河和田1-1",
    "Latitude": 36.3810636,
    "Longitude": 140.4133453
  },
  {
    "Name": "ユーズランド水戸内原店",
    "Address": "茨城県水戸市内原2-1イオンモール水戸内原２Ｆ",
    "Latitude": 36.3665027,
    "Longitude": 140.4709965
  },
  {
    "Name": "ピンクパンサーつくば店",
    "Address": "茨城県つくば市小野崎177-2",
    "Latitude": 36.0768813,
    "Longitude": 140.1047153
  },
  {
    "Name": "ピンクパンサー日立店",
    "Address": "茨城県日立市東多賀町５－１０－１０",
    "Latitude": 36.548234,
    "Longitude": 140.6305081
  },
  {
    "Name": "フェドラＰ＆Ｄ水戸",
    "Address": "茨城県水戸市千波町2017-1",
    "Latitude": 36.3504628,
    "Longitude": 140.4437351
  },
  {
    "Name": "ピンクパンサー那珂店",
    "Address": "茨城県那珂市菅谷１５９３－８",
    "Latitude": 36.4295422,
    "Longitude": 140.515896
  }
]