[
  {
    "Name": "アピナ長野村山店",
    "Address": "長野県長野市村山５０２－１",
    "Latitude": 36.6680433,
    "Longitude": 138.2633997
  },
  {
    "Name": "アピナ長野大橋店",
    "Address": "長野県長野市若里７－９－１２",
    "Latitude": 36.6265335,
    "Longitude": 138.2002093
  },
  {
    "Name": "ＰＡＬＯ諏訪店",
    "Address": "長野県諏訪市沖田町5-18　ステーションパーク・諏訪",
    "Latitude": 36.0055351,
    "Longitude": 138.1301067
  },
  {
    "Name": "ＰＡＬＯ佐久店",
    "Address": "長野県佐久市岩村田6-2　ステーションパーク・佐久",
    "Latitude": 36.2893977,
    "Longitude": 138.4869457
  },
  {
    "Name": "アピナ伊那店",
    "Address": "長野県伊那市大字伊那５０９３",
    "Latitude": 35.8601412,
    "Longitude": 137.8894423
  },
  {
    "Name": "アピナ松本店",
    "Address": "長野県松本市双葉１９－１０",
    "Latitude": 36.2105026,
    "Longitude": 137.9615503
  },
  {
    "Name": "ラウンドワン長野店",
    "Address": "長野県長野市東和田827-6",
    "Latitude": 36.6511505,
    "Longitude": 138.2252117
  },
  {
    "Name": "アピナ上田店",
    "Address": "長野県上田市秋和３５９－１",
    "Latitude": 36.4160793,
    "Longitude": 138.2233204
  }
]