[
  {
    "Name": "セガワールド静岡",
    "Address": "静岡県静岡市葵区七間町4番地の2静活ボウリングビル1，2階",
    "Latitude": 34.9729095,
    "Longitude": 138.3804071
  },
  {
    "Name": "ポート２４浜松店",
    "Address": "静岡県浜松市西区坪井町4183-1",
    "Latitude": 34.6801612,
    "Longitude": 137.6443814
  },
  {
    "Name": "AGスクエア袋井",
    "Address": "静岡県袋井市川井1142-1",
    "Latitude": 34.7463375,
    "Longitude": 137.911439
  },
  {
    "Name": "アップル新北街道店",
    "Address": "静岡県静岡市葵区沓谷5-13-4",
    "Latitude": 34.9984072,
    "Longitude": 138.4135867
  },
  {
    "Name": "シートピアYAZ焼津店",
    "Address": "静岡県焼津市道原585",
    "Latitude": 34.833547,
    "Longitude": 138.3059503
  },
  {
    "Name": "ジョイランドアミューズ諏訪店",
    "Address": "静岡県沼津市大諏訪２０－２",
    "Latitude": 35.1084851,
    "Longitude": 138.8322191
  },
  {
    "Name": "ラウンドワン浜松店",
    "Address": "静岡県浜松市東区天王町諏訪1981-17",
    "Latitude": 34.737888,
    "Longitude": 137.76418099999998
  },
  {
    "Name": "ラウンドワン静岡・駿河店",
    "Address": "静岡県静岡市駿河区手越75",
    "Latitude": 34.9509677,
    "Longitude": 138.3605012
  },
  {
    "Name": "タイトーFステーション静岡店",
    "Address": "静岡県静岡市呉服町２－５－４",
    "Latitude": 34.9743899,
    "Longitude": 138.3834845
  },
  {
    "Name": "ラウンドワン富士店",
    "Address": "静岡県富士市八代町4-15",
    "Latitude": 35.1529523,
    "Longitude": 138.6939238
  }
]